[
  {
    "parent id": "[1]",
    "name": "Little Caesars",
    "description": "This is a little caesars",
    "URL": "https://littlecaesars.com/en-us/store/28",
    "category": "food",
    "address": "8801 W Nine Mile Rd",
    "city": "Oak Park",
    "state": "MI",
    "zip": "48237",
    "lat": "42.459755",
    "lon": "-83.2378007",
    "gmapaddr": "https://maps.app.goo.gl/PDSBcgMyx5JEQhsk7"
  },
  {
    "parent id": "[2]",
    "name": "Test resource 2",
    "description": "This is a test description",
    "URL": "https://google.com",
    "category": "shelter",
    "address": "500 WOODWARD AVE",
    "city": "DETROIT",
    "state": "MI",
    "zip": "48226-3417",
    "lat": "42.330074",
    "lon": "-83.044944",
    "gmapaddr": ""
  },
  {
    "parent id": "[3]",
    "name": "Test resource 3",
    "description": "This is a test description",
    "URL": "https://google.com",
    "category": "health",
    "address": "2800 W BUELL RD",
    "city": "OAKLAND",
    "state": "MI",
    "zip": "48363-2116",
    "lat": "42.755021",
    "lon": "-83.192596",
    "gmapaddr": ""
  },
  {
    "parent id": "[4]",
    "name": "Test resource 4",
    "description": "This is a test description",
    "URL": "https://google.com",
    "category": "financial",
    "address": "2300 GRAEFIELD DR",
    "city": "TROY",
    "state": "MI",
    "zip": "48084-26ND",
    "lat": "42.47127",
    "lon": "-83.115058",
    "gmapaddr": ""
  },
  {
    "parent id": "[5]",
    "name": "Test resource 5",
    "description": "This is a test description",
    "URL": "https://google.com",
    "category": "educational",
    "address": "33801 OAKWOOD DR",
    "city": "STERLING HEIGHTS",
    "state": "MI",
    "zip": "48312-6903",
    "lat": "42.543692",
    "lon": "-82.993524",
    "gmapaddr": ""
  },
  {
    "parent id": "[1,2]",
    "name": "Test resource 6",
    "description": "This is a test description",
    "URL": "https://google.com",
    "category": "childcare",
    "address": "31325 TAMARACK ST",
    "city": "WIXOM",
    "state": "MI",
    "zip": "48393-2522",
    "lat": "42.525942",
    "lon": "-83.52233",
    "gmapaddr": ""
  },
  {
    "parent id": "[1,3]",
    "name": "Test resource 7",
    "description": "This is a test description",
    "URL": "https://google.com",
    "category": "food",
    "address": "29700 INDUSTRIAL RD",
    "city": "LIVONIA",
    "state": "MI",
    "zip": "48150-2016",
    "lat": "42.380897",
    "lon": "-83.336842",
    "gmapaddr": ""
  },
  {
    "parent id": "[1,4]",
    "name": "Test resource 8",
    "description": "This is a test description",
    "URL": "https://google.com",
    "category": "shelter",
    "address": "6201 BUXTON DR",
    "city": "WEST BLOOMFIELD",
    "state": "MI",
    "zip": "48322-2349",
    "lat": "42.547431",
    "lon": "-83.356198",
    "gmapaddr": ""
  },
  {
    "parent id": "[1,5]",
    "name": "Test resource 9",
    "description": "This is a test description",
    "URL": "https://google.com",
    "category": "health",
    "address": "3200 ENTERPRISE DR",
    "city": "SAGINAW",
    "state": "MI",
    "zip": "48603-2312",
    "lat": "43.457278",
    "lon": "-83.979437",
    "gmapaddr": ""
  },
  {
    "parent id": "[2,3]",
    "name": "Test resource 10",
    "description": "This is a test description",
    "URL": "https://google.com",
    "category": "financial",
    "address": "65300 LOWE PLANK RD",
    "city": "LENOX",
    "state": "MI",
    "zip": "48050-1809",
    "lat": "42.782486",
    "lon": "-82.773329",
    "gmapaddr": ""
  },
  {
    "parent id": "[2,4]",
    "name": "Test resource 11",
    "description": "This is a test description",
    "URL": "https://google.com",
    "category": "educational",
    "address": "101 W COLUMBIA AVE",
    "city": "PONTIAC",
    "state": "MI",
    "zip": "48340-1811",
    "lat": "42.669972",
    "lon": "-83.304008",
    "gmapaddr": ""
  },
  {
    "parent id": "[2,5]",
    "name": "Test resource 12",
    "description": "This is a test description",
    "URL": "https://google.com",
    "category": "childcare",
    "address": "223 LAMSON ST",
    "city": "GRAND LEDGE",
    "state": "MI",
    "zip": "48837-1757",
    "lat": "42.749947",
    "lon": "-84.748363",
    "gmapaddr": ""
  },
  {
    "parent id": "[3,4]",
    "name": "Test resource 13",
    "description": "This is a test description",
    "URL": "https://google.com",
    "category": "food",
    "address": "23000 EUREKA RD",
    "city": "TAYLOR",
    "state": "MI",
    "zip": "48180-6060",
    "lat": "42.197725",
    "lon": "-83.261573",
    "gmapaddr": ""
  },
  {
    "parent id": "[3,5]",
    "name": "Test resource 14",
    "description": "This is a test description",
    "URL": "https://google.com",
    "category": "shelter",
    "address": "600 DUCHESS ST",
    "city": "MILFORD",
    "state": "MI",
    "zip": "48381-1100",
    "lat": "42.598095",
    "lon": "-83.594693",
    "gmapaddr": ""
  },
  {
    "parent id": "[4,5]",
    "name": "Test resource 15",
    "description": "This is a test description",
    "URL": "https://google.com",
    "category": "health",
    "address": "2000 COLUMBINE ST",
    "city": "HARSENS ISLAND",
    "state": "MI",
    "zip": "48028-9702",
    "lat": "42.608202",
    "lon": "-82.562953",
    "gmapaddr": ""
  },
  {
    "parent id": "[1,2,3]",
    "name": "Test resource 16",
    "description": "This is a test description",
    "URL": "https://google.com",
    "category": "financial",
    "address": "11801 JEAN ANN",
    "city": "WASHINGTON",
    "state": "MI",
    "zip": "48094-3111",
    "lat": "42.722815",
    "lon": "-83.013705",
    "gmapaddr": ""
  },
  {
    "parent id": "[2,3,4]",
    "name": "Test resource 17",
    "description": "This is a test description",
    "URL": "https://google.com",
    "category": "educational",
    "address": "5100 BERNEDA DR",
    "city": "FLINT",
    "state": "MI",
    "zip": "48506-1588",
    "lat": "43.064387",
    "lon": "-83.612706",
    "gmapaddr": ""
  },
  {
    "parent id": "[3,4,5]",
    "name": "Test resource 18",
    "description": "This is a test description",
    "URL": "https://google.com",
    "category": "childcare",
    "address": "51601 SCHNOOR ST",
    "city": "NEW BALTIMORE",
    "state": "MI",
    "zip": "48047-1132",
    "lat": "42.685849",
    "lon": "-82.735154",
    "gmapaddr": ""
  },
  {
    "parent id": "[1,2,4]",
    "name": "Test resource 19",
    "description": "This is a test description",
    "URL": "https://google.com",
    "category": "food",
    "address": "29950 KINGSBRIDGE DR",
    "city": "ROCKWOOD",
    "state": "MI",
    "zip": "48173-9410",
    "lat": "42.087991",
    "lon": "-83.204836",
    "gmapaddr": ""
  },
  {
    "parent id": "[2,3,5]",
    "name": "Test resource 20",
    "description": "This is a test description",
    "URL": "https://google.com",
    "category": "shelter",
    "address": "3900 NOTTINGHAM TER",
    "city": "MIDLAND",
    "state": "MI",
    "zip": "48642-6217",
    "lat": "43.633282",
    "lon": "-84.198367",
    "gmapaddr": ""
  }
]